[
{
"nombre":"Nutrition Mega Store Cali",
"horario1":"09:00 AM – 06:00 PM",
"horario2":"09:00 AM – 1:00 PM",
"celular":3207582916,
"foto":"https://www.nutramerican.com/img/tiendas/cali2.webp",
"fotoweb":"https://www.nutramerican.com/img/tiendas/cali2.webp",
"address":"Av 6a Norte # 23n-65 Santa Mónica",
"latitud": 3.465442,
"longitud":-76.530905,
"short": "Cali",
"fijo":"(602) 4850558",
"ruta":"cali"
},
{
"nombre":"Nutrition Mega Store Barranquilla",
"horario1":"08:00 AM – 5:30 PM",
"horario2":"08:00 AM – 1:00PM",
"celular":3217483972,
"foto":"https://www.nutramerican.com/api_MegaplexStar/assets/images/tiendas/barranquilla.jpg",
"fotoweb":"https://www.nutramerican.com/img/tiendas/barranquilla.webp",
"address":"Carrera 46 # 76-96 Megaplex Stars Barrio El Porvenir",
"latitud": 10.997021, 
"longitud":-74.810740,
"short": "Barranquilla",
"fijo":"(605) 3093074",
"ruta":"barranquilla"
},
{
"nombre":"Nutrition Mega store Medellín",
"horario1":"08:00 AM – 06:00 PM",
"horario2":"8:00 AM – 1:00PM",
"celular":3137449069,
"foto":"https://www.nutramerican.com/api_MegaplexStar/assets/images/tiendas/medallo.jpg",
"fotoweb":"https://www.nutramerican.com/img/tiendas/medellin2.webp",
"address":"Calle 33 # 65b-13 Barrio Conquistadores",
"short": "Medellín",
"latitud":6.239383,
"longitud": -75.584091,
"fijo":"(604) 6041469",
"ruta":"medellin"
},
{
"nombre":"Megaplex Stars Store Cúcuta",
"horario1":"8:00 AM – 5:30 PM",
"horario2":"08:00 AM – 1:00PM",
"celular":3023282704,
"foto":"https://www.nutramerican.com/api_MegaplexStar/assets/images/tiendas/cucuta.jpg",
"fotoweb":"https://nutramerican.com/api_MegaplexStar/assets/images/tiendas/cucuta.webp",
"address":"Calle 11 # 1–57 Barrio Latino",
"latitud":7.886575, 
"longitud":-72.500044,
"short": "Cúcuta",
"fijo":"(607) 5943483",
"ruta":"cucuta"
},
{
"nombre":"Megaplex Stars Store Bucaramanga",
"horario1":"8:00 AM – 5:30 PM",
"horario2":"08:00 AM – 1:00PM",
"celular":3023282692,
"foto":"https://www.nutramerican.com/api_MegaplexStar/assets/images/tiendas/bucaros2.jpg",
"fotoweb":"https://www.nutramerican.com/api_MegaplexStar/assets/images/tiendas/bucaros2.webp",
"address":"Carrera 35 # 54–70 Barrio Cabecera",
"short": "Bucaramanga",
"latitud":7.117497, 
"longitud": -73.126816,
"fijo":"(607) 6824542",
"ruta":"bucaramanga"
},
{
"nombre":"Megaplex Stars Store Bogotá kennedy",
"horario1":"09:00 AM – 6:00 PM",
"horario2":"09:00 AM – 2:00PM",
"celular":3007516518,
"foto":"https://www.nutramerican.com/api_MegaplexStar/assets/images/tiendas/kened.jpg",
"fotoweb":"https://www.nutramerican.com/api_MegaplexStar/assets/images/tiendas/kened.webp",
"address":"Carrera 79 Sur # 41C – 43 Kennedy",
"short": "Bogotá Kennedy",
"latitud":4.620743, 
"longitud": -74.160044,
"fijo":"(601) 3902357",
"ruta":"bogota"
}
]